[
  { "city": "Abuja", "country": "Nigeria", "lat": 9.0765, "lng": 7.4863, "url": "https://bitdevsabuja.org/" },
  { "city": "Accra", "country": "Ghana", "lat": 5.55, "lng": -0.2, "url": "https://bitdevsaccra.org/" },
  { "city": "Amsterdam", "country": "Netherlands", "lat": 52.3676, "lng": 4.9041, "url": "https://bitdevsamsterdam.org/" },
  { "city": "Athens", "country": "Greece", "lat": 37.9838, "lng": 23.7275, "url": "https://bitdevs-athens.com/" },
  { "city": "Atlanta", "country": "USA", "lat": 33.749, "lng": -84.388, "url": "https://atlbit.dev/" },
  { "city": "Austin", "country": "USA", "lat": 30.2672, "lng": -97.7431, "url": "https://austinbitdevs.com/" },
  { "city": "Barcelona", "country": "Spain", "lat": 41.3874, "lng": 2.1686, "url": "https://bitdevsbarcelona.org/" },
  { "city": "Belo Horizonte", "country": "Brazil", "lat": -19.9167, "lng": -43.9345, "url": "https://bhbitdevs.org/" },
  { "city": "Berlin", "country": "Germany", "lat": 52.52, "lng": 13.405, "url": "https://bitdevs.berlin/" },
  { "city": "Boston", "country": "USA", "lat": 42.3601, "lng": -71.0589, "url": "https://bostonbitdevs.org/" },
  { "city": "Brasília", "country": "Brazil", "lat": -15.7939, "lng": -47.8828, "url": "https://bitdevs.bsb.br" },
  { "city": "Brisbane", "country": "Australia", "lat": -27.4698, "lng": 153.0251, "url": "https://github.com/BneBitDevs/Meetup/issues" },
  { "city": "Buenos Aires", "country": "Argentina", "lat": -34.6037, "lng": -58.3816, "url": "https://www.bitdevsba.org/" },
  { "city": "Chicago", "country": "USA", "lat": 41.8781, "lng": -87.6298, "url": "https://chibitdevs.org/" },
  { "city": "Córdoba", "country": "Argentina", "lat": -31.4201, "lng": -64.1888, "url": "https://bitdevscordoba.org/" },
  { "city": "Cotonou", "country": "Benin", "lat": 6.3703, "lng": 2.4332, "url": "http://bitdevscotonou.org/" },
  { "city": "Curitiba", "country": "Brazil", "lat": -25.4284, "lng": -49.2733, "url": "https://curitibabitdevs.org/" },
  { "city": "Denver", "country": "USA", "lat": 39.7392, "lng": -104.9903, "url": "https://x.com/denverbitdevs" },
  { "city": "Douala", "country": "Cameroon", "lat": 4.0511, "lng": 9.7679, "url": "https://bitdevsdla.org/" },
  { "city": "Florianópolis", "country": "Brazil", "lat": -27.5954, "lng": -48.548, "url": "https://floripabitdevs.org/" },
  { "city": "Gitega", "country": "Burundi", "lat": -3.4264, "lng": 29.9306, "url": "https://bitdevsgtga.org/" },
  { "city": "Goma", "country": "Democratic Republic of Congo", "lat": -1.6794, "lng": 29.2336, "url": "https://bitdevsgoma.org/" },
  { "city": "Guadalajara", "country": "Mexico", "lat": 20.6597, "lng": -103.3496, "url": "https://bitdevs.btcgdl.com/" },
  { "city": "Honolulu", "country": "USA", "lat": 21.3069, "lng": -157.8583, "url": "http://www.honolulubitdevs.com/" },
  { "city": "Kaduna", "country": "Nigeria", "lat": 10.5105, "lng": 7.4165, "url": "https://bitdevskaduna.org/" },
  { "city": "Kampala", "country": "Uganda", "lat": 0.3136, "lng": 32.5811, "url": "http://bitdevskla.org/" },
  { "city": "Kano", "country": "Nigeria", "lat": 12.0022, "lng": 8.5167, "url": "https://bitdevskano.org/" },
  { "city": "Lagos", "country": "Nigeria", "lat": 6.4561, "lng": 3.3936, "url": "https://www.bitdevslagos.org/" },
  { "city": "London", "country": "UK", "lat": 51.5074, "lng": -0.1278, "url": "https://londonbitdevs.org/" },
  { "city": "Los Angeles", "country": "USA", "lat": 34.0522, "lng": -118.2437, "url": "https://bitdevsla.org/" },
  { "city": "Louisville", "country": "USA", "lat": 38.2527, "lng": -85.7585, "url": "https://loubitdevs.org/" },
  { "city": "Mauritius", "country": "Mauritius", "lat": -20.1609, "lng": 57.5012, "url": "https://bitdevsmauritius.org/" },
  { "city": "Melbourne", "country": "Australia", "lat": -37.8136, "lng": 144.9631, "url": "https://melb.bitdevs.com.au/" },
  { "city": "Mexico City", "country": "Mexico", "lat": 19.4326, "lng": -99.1332, "url": "https://cdmxbitdevs.org" },
  { "city": "Miami", "country": "USA", "lat": 25.7617, "lng": -80.1918, "url": "https://miamibitdevs.org/" },
  { "city": "Minneapolis", "country": "USA", "lat": 44.9778, "lng": -93.265, "url": "https://bitdevsmpls.org" },
  { "city": "Nairobi", "country": "Kenya", "lat": -1.2921, "lng": 36.8219, "url": "https://www.bitdevsnbo.org/" },
  { "city": "Nashville", "country": "USA", "lat": 36.1627, "lng": -86.7816, "url": "https://nashbitdevs.org" },
  { "city": "Paris", "country": "France", "lat": 48.8566, "lng": 2.3522, "url": "https://twitter.com/bitdevsfr" },
  { "city": "Perth", "country": "Australia", "lat": -31.9523, "lng": 115.8613, "url": "https://github.com/PerthBitDevs/PerthBitDevs" },
  { "city": "Portland", "country": "USA", "lat": 45.5152, "lng": -122.6784, "url": "https://www.meetup.com/portlandbitdevs/" },
  { "city": "Porto Alegre", "country": "Brazil", "lat": -30.0346, "lng": -51.2177, "url": "https://poabitdevs.org/" },
  { "city": "Raleigh/Durham/Chapel Hill", "country": "USA", "lat": 35.7796, "lng": -78.6382, "url": "https://trianglebitdevs.org/" },
  { "city": "San Francisco", "country": "USA", "lat": 37.7749, "lng": -122.4194, "url": "https://sfbitcoindevs.org/" },
  { "city": "San Juan", "country": "Puerto Rico", "lat": 18.4655, "lng": -66.1057, "url": "https://sanjuanbitdevs.org/" },
  { "city": "San Salvador", "country": "El Salvador", "lat": 13.6929, "lng": -89.2182, "url": "https://bitdevelsalvador.com/" },
  { "city": "Santiago", "country": "Chile", "lat": -33.4489, "lng": -70.6693, "url": "https://santiagobitdevs.com/" },
  { "city": "São Paulo", "country": "Brazil", "lat": -23.5505, "lng": -46.6333, "url": "https://bitdevsportugues.org" },
  { "city": "Seattle", "country": "USA", "lat": 47.6062, "lng": -122.3321, "url": "https://github.com/reardencode/seattle_bitdevs" },
  { "city": "Sydney", "country": "Australia", "lat": -33.8688, "lng": 151.2093, "url": "https://sydney.bitdevs.com.au/" },
  { "city": "Tampa", "country": "USA", "lat": 27.9506, "lng": -82.4572, "url": "https://www.bitcoinbay.foundation/bitdevs" },
  { "city": "Taipei", "country": "Taiwan", "lat": 25.033, "lng": 121.5654, "url": "https://bitdevs.tw/" },
  { "city": "Uberlândia", "country": "Brazil", "lat": -18.9186, "lng": -48.2772, "url": "https://udibitdevs.org/" },
  { "city": "Uyo", "country": "Nigeria", "lat": 5.0333, "lng": 7.9275, "url": "https://bitdevsuyo.org/" },
  { "city": "Vancouver", "country": "Canada", "lat": 49.2827, "lng": -123.1207, "url": "https://bitdevs.ca/" },
  { "city": "Victoria", "country": "Canada", "lat": 48.4284, "lng": -123.3656, "url": "https://bitdevsvictoria.org/" },
  { "city": "Washington, D.C.", "country": "USA", "lat": 38.9072, "lng": -77.0369, "url": "https://dcbitdevs.com/" }
]
